{"type": "FeatureCollection", "features": [{"type": "Feature", "geometry": {"type": "Point", "coordinates": [-86.902298, 32.318231]}, "properties": {"lawTotal": 335, "stateAbbr": "AL", "stateName": "Alabama"}}, {"type": "Feature", "geometry": {"type": "Point", "coordinates": [-154.493062, 63.588753]}, "properties": {"lawTotal": 170, "stateAbbr": "AK", "stateName": "Alaska"}}, {"type": "Feature", "geometry": {"type": "Point", "coordinates": [-111.093731, 34.048928]}, "properties": {"lawTotal": 325, "stateAbbr": "AZ", "stateName": "Arizona"}}, {"type": "Feature", "geometry": {"type": "Point", "coordinates": [-91.831833, 35.20105]}, "properties": {"lawTotal": 337, "stateAbbr": "AR", "stateName": "Arkansas"}}, {"type": "Feature", "geometry": {"type": "Point", "coordinates": [-119.417932, 36.778261]}, "properties": {"lawTotal": 2298, "stateAbbr": "CA", "stateName": "California"}}, {"type": "Feature", "geometry": {"type": "Point", "coordinates": [-105.782067, 39.550051]}, "properties": {"lawTotal": 456, "stateAbbr": "CO", "stateName": "Colorado"}}, {"type": "Feature", "geometry": {"type": "Point", "coordinates": [-73.087749, 41.603221]}, "properties": {"lawTotal": 1768, "stateAbbr": "CT", "stateName": "Connecticut"}}, {"type": "Feature", "geometry": {"type": "Point", "coordinates": [-75.52767, 38.910832]}, "properties": {"lawTotal": 685, "stateAbbr": "DE", "stateName": "Delaware"}}, {"type": "Feature", "geometry": {"type": "Point", "coordinates": [-81.515754, 27.664827]}, "properties": {"lawTotal": 564, "stateAbbr": "FL", "stateName": "Florida"}}, {"type": "Feature", "geometry": {"type": "Point", "coordinates": [-82.907123, 32.157435]}, "properties": {"lawTotal": 287, "stateAbbr": "GA", "stateName": "Georgia"}}, {"type": "Feature", "geometry": {"type": "Point", "coordinates": [-155.665857, 19.898682]}, "properties": {"lawTotal": 1796, "stateAbbr": "HI", "stateName": "Hawaii"}}, {"type": "Feature", "geometry": {"type": "Point", "coordinates": [-114.742041, 44.068202]}, "properties": {"lawTotal": 156, "stateAbbr": "ID", "stateName": "Idaho"}}, {"type": "Feature", "geometry": {"type": "Point", "coordinates": [-89.398528, 40.633125]}, "properties": {"lawTotal": 1542, "stateAbbr": "IL", "stateName": "Illinois"}}, {"type": "Feature", "geometry": {"type": "Point", "coordinates": [-85.602364, 40.551217]}, "properties": {"lawTotal": 277, "stateAbbr": "IN", "stateName": "Indiana"}}, {"type": "Feature", "geometry": {"type": "Point", "coordinates": [-93.097702, 41.878003]}, "properties": {"lawTotal": 554, "stateAbbr": "IA", "stateName": "Iowa"}}, {"type": "Feature", "geometry": {"type": "Point", "coordinates": [-98.484246, 39.011902]}, "properties": {"lawTotal": 299, "stateAbbr": "KS", "stateName": "Kansas"}}, {"type": "Feature", "geometry": {"type": "Point", "coordinates": [-84.270018, 37.839333]}, "properties": {"lawTotal": 186, "stateAbbr": "KY", "stateName": "Kentucky"}}, {"type": "Feature", "geometry": {"type": "Point", "coordinates": [-92.145024, 31.244823]}, "properties": {"lawTotal": 261, "stateAbbr": "LA", "stateName": "Louisiana"}}, {"type": "Feature", "geometry": {"type": "Point", "coordinates": [-69.445469, 45.253783]}, "properties": {"lawTotal": 268, "stateAbbr": "ME", "stateName": "Maine"}}, {"type": "Feature", "geometry": {"type": "Point", "coordinates": [-76.641271, 39.045755]}, "properties": {"lawTotal": 1314, "stateAbbr": "MD", "stateName": "Maryland"}}, {"type": "Feature", "geometry": {"type": "Point", "coordinates": [-71.382437, 42.407211]}, "properties": {"lawTotal": 2434, "stateAbbr": "MA", "stateName": "Massachusetts"}}, {"type": "Feature", "geometry": {"type": "Point", "coordinates": [-85.602364, 44.314844]}, "properties": {"lawTotal": 633, "stateAbbr": "MI", "stateName": "Michigan"}}, {"type": "Feature", "geometry": {"type": "Point", "coordinates": [-94.6859, 46.729553]}, "properties": {"lawTotal": 831, "stateAbbr": "MN", "stateName": "Minnesota"}}, {"type": "Feature", "geometry": {"type": "Point", "coordinates": [-89.398528, 32.354668]}, "properties": {"lawTotal": 218, "stateAbbr": "MS", "stateName": "Mississippi"}}, {"type": "Feature", "geometry": {"type": "Point", "coordinates": [-91.831833, 37.964253]}, "properties": {"lawTotal": 328, "stateAbbr": "MO", "stateName": "Missouri"}}, {"type": "Feature", "geometry": {"type": "Point", "coordinates": [-110.362566, 46.879682]}, "properties": {"lawTotal": 116, "stateAbbr": "MT", "stateName": "Montana"}}, {"type": "Feature", "geometry": {"type": "Point", "coordinates": [-99.901813, 41.492537]}, "properties": {"lawTotal": 579, "stateAbbr": "NE", "stateName": "Nebraska"}}, {"type": "Feature", "geometry": {"type": "Point", "coordinates": [-116.419389, 38.80261]}, "properties": {"lawTotal": 263, "stateAbbr": "NV", "stateName": "Nevada"}}, {"type": "Feature", "geometry": {"type": "Point", "coordinates": [-71.572395, 43.193852]}, "properties": {"lawTotal": 266, "stateAbbr": "NH", "stateName": "New Hampshire"}}, {"type": "Feature", "geometry": {"type": "Point", "coordinates": [-74.405661, 40.058324]}, "properties": {"lawTotal": 1607, "stateAbbr": "NJ", "stateName": "New Jersey"}}, {"type": "Feature", "geometry": {"type": "Point", "coordinates": [-105.032363, 34.97273]}, "properties": {"lawTotal": 260, "stateAbbr": "NM", "stateName": "New Mexico"}}, {"type": "Feature", "geometry": {"type": "Point", "coordinates": [-74.217933, 43.299428]}, "properties": {"lawTotal": 1514, "stateAbbr": "NY", "stateName": "New York"}}, {"type": "Feature", "geometry": {"type": "Point", "coordinates": [-79.0193, 35.759573]}, "properties": {"lawTotal": 696, "stateAbbr": "NC", "stateName": "North Carolina"}}, {"type": "Feature", "geometry": {"type": "Point", "coordinates": [-101.002012, 47.551493]}, "properties": {"lawTotal": 345, "stateAbbr": "ND", "stateName": "North Dakota"}}, {"type": "Feature", "geometry": {"type": "Point", "coordinates": [-82.907123, 40.417287]}, "properties": {"lawTotal": 485, "stateAbbr": "OH", "stateName": "Ohio"}}, {"type": "Feature", "geometry": {"type": "Point", "coordinates": [-97.092877, 35.007752]}, "properties": {"lawTotal": 269, "stateAbbr": "OK", "stateName": "Oklahoma"}}, {"type": "Feature", "geometry": {"type": "Point", "coordinates": [-120.554201, 43.804133]}, "properties": {"lawTotal": 607, "stateAbbr": "OR", "stateName": "Oregon"}}, {"type": "Feature", "geometry": {"type": "Point", "coordinates": [-77.194525, 41.203322]}, "properties": {"lawTotal": 845, "stateAbbr": "PA", "stateName": "Pennsylvania"}}, {"type": "Feature", "geometry": {"type": "Point", "coordinates": [-71.477429, 41.580095]}, "properties": {"lawTotal": 1172, "stateAbbr": "RI", "stateName": "Rhode Island"}}, {"type": "Feature", "geometry": {"type": "Point", "coordinates": [-81.163725, 33.836081]}, "properties": {"lawTotal": 425, "stateAbbr": "SC", "stateName": "South Carolina"}}, {"type": "Feature", "geometry": {"type": "Point", "coordinates": [-99.901813, 43.969515]}, "properties": {"lawTotal": 155, "stateAbbr": "SD", "stateName": "South Dakota"}}, {"type": "Feature", "geometry": {"type": "Point", "coordinates": [-86.580447, 35.517491]}, "properties": {"lawTotal": 505, "stateAbbr": "TN", "stateName": "Tennessee"}}, {"type": "Feature", "geometry": {"type": "Point", "coordinates": [-99.901813, 31.968599]}, "properties": {"lawTotal": 461, "stateAbbr": "TX", "stateName": "Texas"}}, {"type": "Feature", "geometry": {"type": "Point", "coordinates": [-111.093731, 39.32098]}, "properties": {"lawTotal": 322, "stateAbbr": "UT", "stateName": "Utah"}}, {"type": "Feature", "geometry": {"type": "Point", "coordinates": [-72.577841, 44.558803]}, "properties": {"lawTotal": 90, "stateAbbr": "VT", "stateName": "Vermont"}}, {"type": "Feature", "geometry": {"type": "Point", "coordinates": [-78.656894, 37.431573]}, "properties": {"lawTotal": 355, "stateAbbr": "VA", "stateName": "Virginia"}}, {"type": "Feature", "geometry": {"type": "Point", "coordinates": [-120.740139, 47.751074]}, "properties": {"lawTotal": 686, "stateAbbr": "WA", "stateName": "Washington"}}, {"type": "Feature", "geometry": {"type": "Point", "coordinates": [-80.454903, 38.597626]}, "properties": {"lawTotal": 482, "stateAbbr": "WV", "stateName": "West Virginia"}}, {"type": "Feature", "geometry": {"type": "Point", "coordinates": [-88.787868, 43.78444]}, "properties": {"lawTotal": 596, "stateAbbr": "WI", "stateName": "Wisconsin"}}, {"type": "Feature", "geometry": {"type": "Point", "coordinates": [-107.290284, 43.075968]}, "properties": {"lawTotal": 238, "stateAbbr": "WY", "stateName": "Wyoming"}}]}